[{"Name":"Москва","Center":{"type":"Point","coordinates":[37.38,55.56]},"Angles":[0.0,6.0,10.0,11.0]},{"Name":"Новосибирск","Center":{"type":"Point","coordinates":[82.57,54.59]},"Angles":[0.0,6.0,10.0,11.0]},{"Name":"Хабаровск","Center":{"type":"Point","coordinates":[135.04,48.29]},"Angles":[0.0,6.0,10.0,11.0]},{"Name":"Шпицберген","Center":{"type":"Point","coordinates":[21.0,78.38]},"Angles":[0.0,6.0,10.0,11.0]},{"Name":"Анадырь","Center":{"type":"Point","coordinates":[177.31,64.44]},"Angles":[0.0,6.0,10.0,11.0]},{"Name":"Тикси","Center":{"type":"Point","coordinates":[128.52,71.38]},"Angles":[0.0,6.0,10.0,11.0]}]